City_ID,City,Lat,Lng,Max Temp,Humidity,Cloudiness,Wind Speed,Country,Date
0,hotan,37.0997,79.9269,15.33,35,81,4.18,CN,1695489341
1,waitangi,-43.9535,-176.5597,13.23,95,100,2.68,NZ,1695488953
2,grytviken,-54.2811,-36.5092,-1.02,79,98,4.94,GS,1695488947
3,takaungu,-3.6837,39.8566,25.16,85,13,6.02,KE,1695489341
4,thompson,55.7435,-97.8558,19.67,41,74,1.93,CA,1695488962
5,adamstown,-25.066,-130.1015,20.44,89,90,11.77,PN,1695488956
6,port-aux-francais,-49.35,70.2167,1.96,87,90,22.28,TF,1695488943
7,edinburgh of the seven seas,-37.0676,-12.3116,14.28,89,100,19.74,SH,1695488950
8,alto barinas,8.5931,-70.2261,33.44,46,25,2.77,VE,1695489343
9,ghadamis,30.1337,9.5007,37.2,11,83,3.64,LY,1695489343
10,formosa do rio preto,-11.0483,-45.1931,38.15,13,0,2.34,BR,1695489343
11,umluj,25.0213,37.2685,30.2,67,1,3.15,SA,1695489344
12,chonchi,-42.6128,-73.8092,8.56,54,76,1.32,CL,1695489054
13,punta arenas,-53.15,-70.9167,9.06,57,40,14.4,CL,1695488960
14,hell-ville,-13.4,48.2667,26.39,72,8,4.49,MG,1695489344
15,puerto deseado,-47.7503,-65.8938,9.69,39,23,7.07,AR,1695489016
16,invercargill,-46.4,168.35,5.01,90,99,0.89,NZ,1695488949
17,olonkinbyen,70.9221,-8.7187,2.07,66,100,5.05,SJ,1695488942
18,longyearbyen,78.2186,15.6401,-4.09,74,20,2.57,SJ,1695488991
19,aasiaat,68.7098,-52.8699,-0.46,57,0,4.93,GL,1695489010
20,bredasdorp,-34.5322,20.0403,10.92,83,100,4.29,ZA,1695488960
21,timbuktu,16.7735,-3.0074,40.36,15,30,2.21,ML,1695489346
22,fortuna,40.5982,-124.1573,15.19,85,0,0.0,US,1695488993
23,yellowknife,62.456,-114.3525,13.56,90,100,2.68,CA,1695488943
24,carnarvon,-24.8667,113.6333,18.3,76,0,9.6,AU,1695489000
25,ilulissat,69.2167,-51.1,0.83,45,7,1.93,GL,1695488956
26,san antonio de pale,-1.4014,5.6325,24.79,82,94,5.31,GQ,1695489025
27,cisnadie,45.7167,24.15,24.88,51,0,2.68,RO,1695489347
28,knyaze-volkonskoye,48.4642,135.4567,9.19,73,26,3.4,RU,1695489348
29,malvan,16.0667,73.4667,26.29,86,100,1.98,IN,1695489348
30,st. john's,47.5649,-52.7093,17.93,69,75,9.77,CA,1695488751
31,puerto ayora,-0.7393,-90.3518,27.98,88,87,2.24,EC,1695488976
32,touros,-5.1989,-35.4608,29.56,55,0,5.7,BR,1695489119
33,ouarzazat,30.9189,-6.8934,34.16,4,0,3.09,MA,1695489349
34,port mathurin,-19.6833,63.4167,23.14,69,3,10.71,MU,1695488958
35,korhogo,9.45,-5.6333,28.7,70,58,1.59,CI,1695489349
36,tiksi,71.6872,128.8694,0.93,83,40,4.51,RU,1695489041
37,whangarei,-35.7317,174.3239,12.52,97,100,3.11,NZ,1695489350
38,hasaki,35.7333,140.8333,21.27,56,100,9.32,JP,1695489062
39,bilibino,68.0546,166.4372,1.75,99,100,1.81,RU,1695488948
40,uribia,11.7139,-72.266,35.18,44,98,5.55,CO,1695489350
41,monze,-16.2833,27.4833,27.21,22,6,3.96,ZM,1695489350
42,cedral,23.8,-100.7333,26.43,38,4,1.52,MX,1695489351
43,atherton,53.5237,-2.4935,16.05,62,99,1.79,GB,1695489351
44,puerto natales,-51.7236,-72.4875,6.92,64,95,5.98,CL,1695488957
45,lhasa,29.65,91.1,11.55,76,99,2.42,CN,1695489353
46,udachny,66.4167,112.4,6.92,93,100,2.88,RU,1695488947
47,whitehorse,60.7161,-135.0538,2.12,93,23,0.89,CA,1695489036
48,blackmans bay,-43.0167,147.3167,7.51,93,32,2.21,AU,1695488967
49,valsad,20.6333,72.9333,25.92,91,99,4.4,IN,1695489354
50,kavaratti,10.5669,72.642,27.79,79,80,5.68,IN,1695489079
51,novyy urgal,51.0736,132.5642,4.84,92,0,0.23,RU,1695489354
52,sanctuary point,-35.1114,150.629,13.75,88,66,1.68,AU,1695489121
53,kingston,17.997,-76.7936,30.13,84,11,3.13,JM,1695488938
54,powell river,49.8496,-124.5361,16.8,67,75,5.66,CA,1695489355
55,clarksville,36.5298,-87.3595,28.69,46,0,3.6,US,1695489355
56,bethel,41.3712,-73.414,15.17,88,100,5.66,US,1695488970
57,qaqortoq,60.7167,-46.0333,4.85,55,100,1.13,GL,1695488978
58,atafu village,-8.5421,-172.5159,27.61,82,99,6.75,TK,1695488999
59,kirov,58.5966,49.6601,16.44,66,0,2.73,RU,1695489219
60,sarmiento,-45.5882,-69.07,9.27,42,2,3.17,AR,1695489357
61,albany,42.6001,-73.9662,15.1,81,100,0.45,US,1695488942
62,correntina,-13.3433,-44.6367,36.61,13,6,2.43,BR,1695489357
63,gizo,-8.103,156.8419,26.41,83,100,3.94,SB,1695489043
64,belmonte,-15.8631,-38.8828,26.04,70,57,4.14,BR,1695489358
65,carora,10.1755,-70.0827,35.86,31,83,1.48,VE,1695489358
66,somerset east,-32.7217,25.588,12.8,95,98,4.08,ZA,1695489358
67,arinos,-15.9169,-46.1056,37.87,14,19,1.92,BR,1695489358
68,moramanga,-18.9333,48.2,15.54,99,60,1.28,MG,1695489359
69,ushuaia,-54.8,-68.3,3.51,99,99,1.99,AR,1695488953
70,gadzhiyevo,69.2551,33.3362,8.87,92,100,5.2,RU,1695489111
71,margaret river,-33.95,115.0667,11.64,79,52,3.47,AU,1695488944
72,ust-nera,64.5667,143.2,-1.48,93,99,0.78,RU,1695488960
73,aswan,24.0934,32.907,35.76,13,0,4.53,EG,1695489022
74,kailua-kona,19.6406,-155.9956,24.17,81,20,2.57,US,1695489020
75,hamilton,39.1834,-84.5333,24.77,49,0,5.66,US,1695489055
76,lebu,-37.6167,-73.65,11.69,63,0,4.89,CL,1695488961
77,lompoc,34.6391,-120.4579,17.69,68,100,3.6,US,1695489039
78,sibenik,43.7272,15.9058,19.81,82,100,0.45,HR,1695489361
79,nova sintra,14.8667,-24.7167,24.78,77,65,2.43,CV,1695489362
80,hithadhoo,-0.6,73.0833,28.17,78,100,5.66,MV,1695489025
81,cururupu,-1.8283,-44.8683,31.45,55,39,3.69,BR,1695489079
82,aykhal,66.0,111.5,6.02,97,99,3.11,RU,1695489038
83,ribeira grande,38.5167,-28.7,24.32,83,40,9.26,PT,1695488946
84,remire-montjoly,4.9167,-52.2667,34.02,55,20,4.63,GF,1695488948
85,iqaluit,63.7506,-68.5145,3.3,65,71,0.92,CA,1695488944
86,ngaruawahia,-37.6674,175.1555,13.44,94,100,0.89,NZ,1695489363
87,kangding,30.0513,101.9603,13.78,95,89,0.76,CN,1695489364
88,pisco,-13.7,-76.2167,21.12,77,0,4.63,PE,1695488955
89,akureyri,65.6835,-18.0878,4.42,97,94,1.18,IS,1695489005
90,iskateley,67.6803,53.1512,13.91,91,63,7.17,RU,1695489094
91,hawaiian paradise park,19.5933,-154.9731,22.16,96,20,3.09,US,1695488946
92,tura,25.5198,90.2201,22.96,96,99,1.46,IN,1695488995
93,botou,38.0667,116.5667,18.51,71,68,2.47,CN,1695489365
94,puerto aysen,-45.4,-72.7,7.99,71,69,1.85,CL,1695489059
95,torghay,49.6339,63.4981,15.95,43,18,5.21,KZ,1695489366
96,vorgashor,67.5833,63.95,3.38,94,100,5.91,RU,1695488971
97,geri,35.1,33.4167,29.49,48,0,7.2,CY,1695489366
98,quellon,-43.1167,-73.6167,7.61,64,99,2.66,CL,1695489047
99,greenville,35.6127,-77.3663,18.01,99,100,6.69,US,1695489112
100,dame-marie,18.5667,-74.4167,29.07,71,39,0.85,HT,1695489367
101,dunedin,-45.8742,170.5036,6.0,85,100,2.42,NZ,1695489119
102,cabo san lucas,22.8909,-109.9124,36.61,43,0,3.6,MX,1695488639
103,papatowai,-46.5619,169.4708,4.81,82,95,2.33,NZ,1695488976
104,wanning,18.8003,110.3967,26.77,88,100,2.83,CN,1695489368
105,mogadishu,2.0371,45.3438,25.69,85,54,6.33,SO,1695489368
106,north ward,-19.2454,146.8075,20.95,64,40,3.6,AU,1695489368
107,port lincoln,-34.7333,135.8667,14.49,70,0,4.82,AU,1695488855
108,colonia,50.9333,6.95,17.76,65,20,3.6,DE,1695489369
109,dompu,-8.5356,118.4622,22.51,97,84,0.29,ID,1695489369
110,constantia,44.1833,28.65,22.61,82,7,6.29,RO,1695489009
111,brahmapur,19.3167,84.7833,26.6,91,88,2.76,IN,1695489370
112,tsiombe,-25.3,45.4833,22.03,75,0,3.06,MG,1695488839
113,yuzhno-kurilsk,44.0306,145.8556,12.65,73,4,1.4,RU,1695489063
114,timbiras,-4.2553,-43.9406,39.98,22,8,1.7,BR,1695489370
115,nizhniy odes,63.6445,54.856,15.12,90,3,3.95,RU,1695489371
116,kantharalak,14.6406,104.6499,27.76,90,34,2.23,TH,1695489371
117,wailua homesteads,22.0669,-159.378,24.44,85,100,7.72,US,1695488974
118,utsunomiya,36.5658,139.8836,18.51,85,100,2.08,JP,1695489183
119,katsuren-haebaru,26.3369,127.8719,28.01,88,20,1.03,JP,1695489105
120,pyt-yakh,60.7499,72.8582,7.59,67,100,1.99,RU,1695489372
121,howard springs,-12.497,131.047,26.95,87,24,1.77,AU,1695489038
122,trondheim,63.4305,10.3951,12.73,87,76,1.79,NO,1695489372
123,el porvenir,13.7617,-87.3458,32.63,43,22,0.93,HN,1695489373
124,margate,51.3813,1.3862,16.61,60,37,1.34,GB,1695489106
125,taltal,-25.4,-70.4833,19.06,66,98,2.61,CL,1695489373
126,waat,51.1454,6.4958,17.12,82,100,2.57,DE,1695489373
127,belyy yar,53.6039,91.3903,7.94,81,20,0.0,RU,1695489374
128,hobyo,5.3505,48.5268,26.46,81,26,9.27,SO,1695489374
129,quelimane,-17.8786,36.8883,25.97,69,0,4.63,MZ,1695489374
130,stanley,54.868,-1.6985,13.21,70,40,2.57,GB,1695488967
131,airdrie,55.866,-3.9803,13.36,63,99,2.6,GB,1695489375
132,geraldton,-28.7667,114.6,11.23,87,1,2.57,AU,1695489375
133,kishorganj,24.4333,90.7667,26.12,92,97,2.58,BD,1695489375
134,rusape,-18.5278,32.1284,21.29,33,41,3.74,ZW,1695489375
135,salinopolis,-0.6136,-47.3561,30.21,63,2,6.41,BR,1695489376
136,enewetak,11.3474,162.3373,27.74,82,100,4.85,MH,1695488958
137,mogocha,53.7333,119.7667,5.95,84,53,1.2,RU,1695489376
138,georgetown,5.4112,100.3354,26.96,89,20,0.0,MY,1695488886
139,poyarkovo,49.6,128.6833,10.49,77,12,3.74,RU,1695489377
140,ovalle,-30.5983,-71.2003,26.88,20,9,2.42,CL,1695489377
141,ta`u,-14.2336,-169.5144,25.51,76,100,13.69,AS,1695488975
142,port alfred,-33.5906,26.891,15.66,95,100,0.89,ZA,1695489037
143,washim,20.1,77.15,23.59,91,96,2.17,IN,1695489378
144,isangel,-19.55,169.2667,22.68,88,50,2.96,VU,1695489378
145,mount isa,-20.7333,139.5,21.87,18,0,2.06,AU,1695489116
146,greymouth,-42.4667,171.2,8.1,87,99,1.98,NZ,1695489379
147,flying fish cove,-10.4217,105.6791,23.82,83,100,5.66,CX,1695489005
148,talnakh,69.4865,88.3972,1.23,80,97,8.17,RU,1695488959
149,sassandra,4.95,-6.0833,25.0,90,98,2.76,CI,1695489053
150,petrolina,-9.3986,-40.5008,35.03,34,20,3.6,BR,1695488955
151,college,64.8569,-147.8028,2.67,90,75,0.0,US,1695488954
152,vila franca do campo,37.7167,-25.4333,24.23,68,23,4.33,PT,1695489382
153,brokopondo,4.75,-55.1667,32.24,51,19,0.83,SR,1695489383
154,izluchinsk,60.9794,76.9242,5.01,59,100,5.72,RU,1695489383
155,ancud,-41.8697,-73.8203,9.28,54,88,1.44,CL,1695489002
156,sirte,31.2089,16.5887,28.76,54,0,6.28,LY,1695489385
157,mburucuya,-28.0454,-58.2245,38.33,28,30,5.73,AR,1695489385
158,west island,-12.1568,96.8225,25.99,78,100,7.72,CC,1695488969
159,birjand,32.8663,59.2211,17.26,17,0,3.09,IR,1695489386
160,tazovsky,67.4667,78.7,0.61,77,25,7.28,RU,1695489063
161,kamyanyets,52.4001,23.81,17.37,86,99,2.94,BY,1695489388
162,petropavlovsk-kamchatsky,53.0452,158.6483,5.99,75,71,9.52,RU,1695488951
163,nuuk,64.1835,-51.7216,4.34,56,20,3.6,GL,1695489088
164,hadibu,12.65,54.0333,27.17,80,74,5.73,YE,1695488964
165,fale old settlement,-9.3852,-171.2468,27.57,82,100,7.86,TK,1695488974
166,mahina,-17.5065,-149.489,21.87,94,75,10.29,PF,1695488945
167,utrik,11.2278,169.8474,27.68,79,94,8.44,MH,1695489024
168,atakpame,7.5333,1.1333,24.78,86,73,2.61,TG,1695489381
169,ouadda,8.0777,22.4007,22.61,89,83,0.93,CF,1695489102
170,badger,64.8,-147.5333,2.62,90,100,0.0,US,1695488972
171,santo antonio do ica,-3.1022,-67.9397,34.77,44,29,1.63,BR,1695488966
172,kamaishi,39.2667,141.8833,16.56,81,31,2.27,JP,1695489078
173,egilsstadir,65.2653,-14.3948,5.95,81,100,2.57,IS,1695489395
174,east london,-33.0153,27.9116,18.19,88,100,6.6,ZA,1695488994
175,vilyuchinsk,52.9306,158.4028,6.81,78,81,6.38,RU,1695488979
176,sosnovka,56.255,51.2842,19.69,57,90,2.23,RU,1695489397
177,isafjordur,66.0755,-23.124,4.14,78,97,4.95,IS,1695488993
178,san andres,12.5847,-81.7006,32.01,70,40,5.14,CO,1695489199
179,new norfolk,-42.7826,147.0587,8.17,99,40,1.14,AU,1695488963
180,san fernando,15.0286,120.6898,26.85,93,100,1.24,PH,1695489052
181,hermanus,-34.4187,19.2345,11.0,80,100,7.35,ZA,1695489003
182,minas de marcona,-15.2119,-75.1103,18.38,61,36,6.27,PE,1695488999
183,chillicothe,39.3331,-82.9824,23.84,35,0,4.12,US,1695489402
184,uturoa,-16.7333,-151.4333,23.89,85,100,11.7,PF,1695489003
185,harper,4.375,-7.7169,24.89,90,100,3.45,LR,1695489404
186,wenchang,30.904,118.4887,18.68,95,100,2.06,CN,1695489405
187,santaluz,-11.2558,-39.3747,32.74,31,41,2.73,BR,1695489406
188,palmaner,13.2,78.75,25.08,74,97,2.78,IN,1695489407
189,maceio,-9.6658,-35.7353,27.69,74,75,4.12,BR,1695489219
190,andovoranto,-18.95,49.1,21.46,90,7,1.72,MG,1695489408
191,kamikawa,43.84,142.7711,7.68,92,0,1.56,JP,1695489409
192,masaya sur,16.497,121.7456,23.59,94,100,0.62,PH,1695489410
193,fort st. john,56.2499,-120.8529,14.35,44,46,1.67,CA,1695489049
194,vinogradovo,56.9333,37.55,14.9,51,0,3.38,RU,1695489411
195,kodiak,57.79,-152.4072,4.73,87,75,2.06,US,1695488988
196,kerikeri,-35.2268,173.9474,14.95,95,100,0.45,NZ,1695489413
197,mata-utu,-13.2816,-176.1745,26.89,81,89,12.21,WF,1695489413
198,sydney mines,46.2367,-60.2177,21.73,65,40,10.29,CA,1695489414
199,nueva gerona,21.8833,-82.8,30.58,58,18,1.15,CU,1695489414
200,avarua,-21.2078,-159.775,20.03,45,13,2.06,CK,1695488976
201,petal,31.3466,-89.2601,32.35,44,0,3.09,US,1695489416
202,meadow lakes,61.6247,-149.6011,6.77,92,100,1.54,US,1695488952
203,bel ombre,-4.6167,55.4167,26.51,83,100,8.93,SC,1695489032
204,kupang,-10.1667,123.5833,24.32,88,12,2.57,ID,1695488965
205,bardai,11.65,7.2333,25.71,73,86,2.43,NG,1695489031
206,mana,5.6592,-53.7767,31.77,58,21,4.9,GF,1695488963
207,novaya igirma,57.1334,103.9112,10.79,77,85,0.39,RU,1695489120
208,makhalino,53.0854,46.2211,15.78,45,0,1.74,RU,1695489420
209,santa rita,-7.1139,-34.9781,29.37,65,40,5.14,BR,1695489420
210,kitimat,54.0524,-128.6534,10.38,99,100,0.32,CA,1695489421
211,burnet,30.7582,-98.2284,34.24,55,0,4.63,US,1695489421
212,ciudad bolivar,8.1222,-63.5497,35.98,37,50,2.79,VE,1695489422
213,happy valley-goose bay,53.3168,-60.3315,10.45,76,99,4.51,CA,1695488951
214,luderitz,-26.6481,15.1594,15.77,72,20,13.78,NA,1695489094
215,igarka,67.4667,86.5833,0.59,89,100,9.56,RU,1695489425
216,klyuchi,52.2667,79.1667,6.75,66,81,3.71,RU,1695488960
217,port moresby,-9.4431,147.1797,23.38,90,93,4.73,PG,1695489426
218,yelizovo,53.1873,158.3805,7.08,75,40,3.13,RU,1695489427
219,yemva,62.59,50.8594,16.27,85,54,3.97,RU,1695489428
220,nueva villa de padilla,24.0167,-98.7833,33.61,40,0,4.77,MX,1695489429
221,kiunga,-6.1219,141.2906,21.8,99,90,0.93,PG,1695488971
222,pariaman,-0.619,100.12,25.03,83,95,1.72,ID,1695489430
223,ola,59.5833,151.2833,6.19,77,96,1.28,RU,1695489019
224,novodvinsk,64.4165,40.8122,16.67,70,13,5.13,RU,1695489431
225,pitrufquen,-38.9833,-72.65,13.01,62,20,2.06,CL,1695489432
226,faya-largeau,17.9257,19.1043,37.15,8,70,3.53,TD,1695489121
227,rio grande,-32.035,-52.0986,19.06,98,100,4.72,BR,1695489253
228,praya,14.9215,-23.5087,30.3,66,20,4.12,CV,1695489434
229,asia,9.5506,122.5164,25.53,89,100,2.8,PH,1695489434
230,vorkuta,67.5,64.0,3.55,94,100,5.75,RU,1695489435
231,solnechnyy,50.7214,136.6319,8.42,67,35,1.83,RU,1695489435
232,naze,28.3667,129.4833,25.02,84,57,2.4,JP,1695489011
233,fort bragg,35.139,-79.006,18.91,79,100,7.2,US,1695489028
234,berezovyy,51.6667,135.7,7.69,79,55,2.36,RU,1695489053
235,gantang,26.92,119.6333,24.79,93,80,1.21,CN,1695489437
236,tubarjal,30.4999,38.216,34.35,14,0,4.24,SA,1695489438
237,ghat,24.9647,10.1728,34.82,9,0,3.83,LY,1695488971
238,bamboo flat,11.7,92.7167,25.68,88,100,5.69,IN,1695489080
239,lycksele,64.5954,18.6735,10.93,87,100,1.54,SE,1695489440
240,rosetta,31.4044,30.4164,25.74,66,0,4.14,EG,1695489441
241,malango,-2.9627,119.9001,17.53,93,40,0.92,ID,1695489442
242,kotel'va,50.0686,34.7586,20.41,42,100,3.19,UA,1695489442
243,mo i rana,66.3128,14.1428,10.18,89,75,1.03,NO,1695489443
244,afaahiti,-17.75,-149.2833,20.93,97,100,11.19,PF,1695488975
245,arraial do cabo,-22.9661,-42.0278,25.92,73,0,5.14,BR,1695489048
246,odda,60.0691,6.5457,11.54,94,97,2.64,NO,1695489444
247,ratnagiri,16.9833,73.3,26.24,86,100,1.34,IN,1695489445
248,alofi,-19.0595,-169.9187,21.94,60,100,7.2,NU,1695489446
249,gebeit,21.0667,36.3167,33.21,19,2,2.25,SD,1695489447
250,nemuro,43.3236,145.575,14.65,74,40,4.27,JP,1695489029
251,xianju,28.85,120.7333,23.6,98,99,0.92,CN,1695489448
252,morehead city,34.7229,-76.726,20.57,86,100,8.05,US,1695489449
253,guajara,-2.9667,-57.6667,38.46,31,46,2.58,BR,1695489449
254,kramfors,62.9316,17.7765,11.89,87,72,1.54,SE,1695489450
255,howrah,22.5892,88.3103,28.0,89,40,3.6,IN,1695489098
256,jamestown,42.097,-79.2353,20.01,44,0,5.14,US,1695488959
257,hammerfest,70.6634,23.6821,7.25,87,40,2.06,NO,1695489451
258,codajas,-3.8367,-62.0569,35.95,39,89,1.06,BR,1695489452
259,victorica,-36.2151,-65.4359,19.4,52,92,1.7,AR,1695489452
260,itoman,26.1247,127.6694,28.01,83,55,1.03,JP,1695489076
261,port saint john's,-31.6229,29.5448,19.68,88,100,3.55,ZA,1695488952
262,arkhangel'sk,64.5401,40.5433,17.12,68,7,5.32,RU,1695488891
263,mohacs,45.9931,18.6831,17.7,96,100,2.32,HU,1695489454
264,qujing,25.4833,103.7833,16.92,96,17,2.54,CN,1695489101
265,mili,6.0815,171.735,27.16,78,93,1.39,MH,1695489455
266,kill devil hills,36.0307,-75.676,24.99,80,100,13.89,US,1695488732
267,urengoy,65.9667,78.3667,0.62,73,62,6.71,RU,1695489455
268,lindi,-10.0,39.7167,23.43,89,13,1.74,TZ,1695489456
269,covington,39.0837,-84.5086,25.04,49,0,5.66,US,1695489243
270,haiku-pauwela,20.9219,-156.3051,25.02,84,20,3.13,US,1695488991
271,stephenville,32.2207,-98.2023,33.76,52,0,6.17,US,1695489294
272,cobh,51.8572,-8.2992,15.58,100,75,8.23,IE,1695489456
273,sabang,5.8933,95.3214,26.79,79,100,7.07,ID,1695489457
274,el granada,37.5027,-122.4694,17.79,75,100,2.06,US,1695489457
275,dudinka,69.4058,86.1778,1.46,84,70,8.37,RU,1695489040
276,olinda,-8.0089,-34.8553,27.85,74,40,4.63,BR,1695489435
277,guiuan,11.0333,125.7247,27.51,80,100,5.57,PH,1695489458
278,san luis de la loma,17.2706,-100.8939,31.28,67,6,2.63,MX,1695489127
279,al bayda',32.7627,21.7551,24.86,42,0,2.18,LY,1695489459
280,g'uzor,38.6214,66.2522,17.02,28,0,0.87,UZ,1695489459
281,port augusta,-32.5,137.7667,12.11,43,0,1.32,AU,1695489459
282,sechura,-5.5569,-80.8222,25.84,58,35,5.06,PE,1695489460
283,artigas,-30.4,-56.4667,24.43,81,94,1.82,UY,1695489460
284,holualoa,19.6228,-155.9522,22.1,81,20,2.57,US,1695488967
285,barra de santo antonio,-9.4047,-35.5072,27.6,71,18,4.14,BR,1695489462
286,kenai,60.5544,-151.2583,5.08,95,100,1.54,US,1695489463
287,ulsteinvik,62.3432,5.8487,13.28,91,96,6.71,NO,1695489041
288,betio village,1.358,172.9211,26.02,75,26,2.58,KI,1695489464
289,usinsk,65.9939,57.5281,11.84,94,87,5.27,RU,1695489464
290,inari,68.906,27.0288,9.11,92,100,3.58,FI,1695489465
291,lydenburg,-25.0978,30.4597,18.58,32,26,2.27,ZA,1695489465
292,freetown,8.484,-13.2299,26.7,84,99,3.58,SL,1695489466
293,paraiso,9.8383,-83.8656,27.48,56,29,1.9,CR,1695489466
294,yanam,16.7333,82.2167,26.39,94,86,2.15,IN,1695489467
295,beira,-19.8436,34.8389,24.9,78,0,4.51,MZ,1695489467
296,paita,-5.0892,-81.1144,23.1,70,14,6.11,PE,1695489468
297,jefferson city,38.5767,-92.1735,29.95,44,0,4.63,US,1695489291
298,bereeda,11.8704,51.0579,30.14,66,44,1.97,SO,1695489469
299,mossel bay,-34.1831,22.146,12.96,89,100,6.49,ZA,1695489469
300,mekhe,15.1097,-16.6218,31.9,57,98,5.01,SN,1695489470
301,saipan,15.1355,145.701,27.39,83,0,2.06,MP,1695488977
302,kilindoni,-7.9139,39.6668,25.78,77,19,5.47,TZ,1695489470
303,rundu,-17.9333,19.7667,29.77,13,37,1.65,NA,1695489471
304,lihue,21.9789,-159.3672,24.77,84,100,7.72,US,1695488890
305,phan rang-thap cham,11.5667,108.9833,24.96,92,100,1.54,VN,1695489472
306,vershino-darasunskiy,52.35,115.5167,10.23,56,100,1.94,RU,1695489472
307,kapuskasing,49.4169,-82.4331,18.66,64,80,2.36,CA,1695488998
308,kapa'a,22.0752,-159.319,25.18,84,100,7.72,US,1695489441
309,markovo,57.3206,107.0881,9.69,79,39,0.66,RU,1695489474
310,palasa,18.7667,84.4167,26.89,89,79,3.77,IN,1695489474
311,tazacorte,28.629,-17.9293,25.54,96,75,4.12,ES,1695489117
312,sharlyk,52.9167,54.75,18.4,64,31,1.79,RU,1695489475
313,cidreira,-30.1811,-50.2056,19.02,99,100,4.72,BR,1695489079
314,tan-tan,28.438,-11.1032,22.97,68,75,9.77,MA,1695489477
315,vallenar,-28.5708,-70.7581,31.05,9,5,4.01,CL,1695489477
316,nouadhibou,20.931,-17.0347,25.99,65,9,7.2,MR,1695488981
317,polyarnyy,69.1989,33.4478,9.18,93,100,5.08,RU,1695489080
318,port elizabeth,-33.918,25.5701,15.05,95,100,1.79,ZA,1695488949
319,redencao,-4.2258,-38.7306,34.86,32,40,6.72,BR,1695489481
320,simpang,-1.2667,104.0833,24.33,88,78,1.36,ID,1695489481
321,novyy urengoy,66.0833,76.6333,-0.39,79,45,4.74,RU,1695489482
322,envira,-7.3,-70.2167,38.73,27,0,1.28,BR,1695489483
323,guerrero negro,27.9769,-114.0611,23.39,69,4,4.89,MX,1695489021
324,island harbour,50.724,-1.2758,16.84,69,63,1.34,GB,1695489484
325,brisas de zicatela,15.8369,-97.0419,32.29,51,0,2.06,MX,1695489485
326,san julian,21.0167,-102.1667,23.49,39,9,1.95,MX,1695489255
327,cobram,-35.9167,145.65,7.51,83,0,3.19,AU,1695489486
328,catia la mar,10.6038,-67.0303,32.11,74,40,3.09,VE,1695489487
329,susuman,62.7833,148.1667,-2.31,84,95,0.63,RU,1695488945
330,hilo,19.7297,-155.09,22.38,95,20,3.09,US,1695489431
331,porto novo,6.4965,2.6036,26.94,75,88,3.16,BJ,1695489393
332,coquimbo,-29.9533,-71.3436,17.96,63,3,4.22,CL,1695489017
333,nantucket,41.2835,-70.0995,17.08,99,75,7.72,US,1695489243
334,borba,-4.3878,-59.5939,38.64,29,27,2.69,BR,1695489491
335,ironwood,46.4547,-90.171,16.56,94,100,5.66,US,1695489492
336,grand falls-windsor,48.9332,-55.6649,16.39,85,100,0.45,CA,1695489492
337,zarand,30.8127,56.564,21.34,18,0,2.69,IR,1695489493
338,pishva,35.308,51.7267,26.26,19,0,3.76,IR,1695489494
339,noumea,-22.2763,166.4572,22.78,99,81,4.06,NC,1695489096
340,metkovic,43.0542,17.6483,18.26,91,99,3.3,HR,1695489495
341,alice springs,-23.7,133.8833,10.75,35,0,0.0,AU,1695489026
342,mezhdurechenskiy,59.6,65.9333,10.47,66,100,2.61,RU,1695489496
343,codrington,-38.2667,141.9667,7.6,85,1,3.69,AU,1695489496
344,san pedro,14.35,121.0167,26.57,94,40,1.03,PH,1695489497
345,dunyapur,29.7995,71.7196,33.01,38,9,4.05,PK,1695489497
346,tolanaro,-25.0319,46.9987,22.47,78,0,8.59,MG,1695488955
347,bodaybo,57.8506,114.1933,8.46,82,25,0.91,RU,1695489498
348,mitu,1.1983,-70.1733,35.65,40,2,1.27,CO,1695489498
349,anadyr,64.75,177.4833,3.28,100,100,5.0,RU,1695488950
350,impfondo,1.6381,18.0667,24.04,89,93,3.35,CG,1695489498
351,walvis bay,-22.9575,14.5053,14.49,84,48,7.26,NA,1695489499
352,chiriguana,9.3624,-73.6031,35.54,46,98,2.33,CO,1695489499
353,plastun,44.7561,136.2939,9.04,81,0,3.33,RU,1695489499
354,illizi,26.4833,8.4667,37.47,10,100,6.55,DZ,1695489025
355,bangassou,4.7413,22.8184,21.91,97,94,0.24,CF,1695489500
356,mount pearl,47.5166,-52.7813,17.47,69,34,5.36,CA,1695488979
357,laojunmiao,39.8333,97.7333,10.54,61,85,2.21,CN,1695489500
358,nar'yan-mar,67.6713,53.087,14.02,91,62,7.17,RU,1695489055
359,inongo,-1.95,18.2667,21.76,92,84,4.56,CD,1695489500
360,lazarevskoye,43.9061,39.3331,22.76,66,2,1.82,RU,1695489477
361,eduardo castex,-35.915,-64.2945,21.68,41,94,1.88,AR,1695489501
362,kayangel,8.0823,134.7173,28.27,78,100,7.85,PW,1695489501
363,chibougamau,49.9168,-74.3659,16.86,44,0,1.77,CA,1695489007
364,kilju,40.9642,129.3278,11.93,84,0,1.77,KP,1695489502
365,pierre,44.3683,-100.351,17.51,86,100,0.0,US,1695488832
366,palikir - national government center,6.9248,158.1611,28.13,78,86,4.71,FM,1695488947
367,durban,-29.8579,31.0292,21.51,90,100,1.59,ZA,1695489241
368,vila velha,-20.3297,-40.2925,29.97,67,0,7.2,BR,1695489036
369,keflavik,64.0049,-22.5624,9.24,93,75,3.6,IS,1695489503
370,bayganin,48.6947,55.8742,22.25,43,73,3.17,KZ,1695489503
371,coahuayana de hidalgo,18.7,-103.6583,33.04,63,39,1.57,MX,1695489059
372,whitby,54.4877,-0.615,15.0,72,78,3.03,GB,1695489386
373,yazoo city,32.8551,-90.4056,32.17,33,2,1.21,US,1695489415
374,mocimboa,-11.3167,40.35,24.21,83,27,3.79,MZ,1695489504
375,thurso,58.5927,-3.5259,11.14,69,98,3.29,GB,1695489504
376,orlov,58.5395,48.8917,16.81,65,0,2.66,RU,1695489505
377,minggang,32.4586,114.0486,15.67,97,100,4.62,CN,1695489505
378,vanino,49.0869,140.2543,7.93,73,11,2.45,RU,1695489505
379,pangody,65.85,74.4859,-0.04,75,78,3.42,RU,1695489085
380,banlung,13.7468,107.0045,22.26,99,95,0.24,KH,1695489506
381,prainha,-1.8,-53.48,36.26,36,41,2.58,BR,1695489506
382,tutoia,-2.7619,-42.2744,29.97,65,0,7.46,BR,1695489481
383,mzimba,-11.9,33.6,20.2,47,12,2.42,MW,1695489506
384,sola,-13.8833,167.55,25.06,74,56,4.64,VU,1695489507
385,orapa,-21.2833,25.3667,28.76,12,0,2.63,BW,1695489507
386,abu zabad,12.35,29.25,31.48,42,82,3.45,SD,1695489507
387,loralai,30.3705,68.598,25.0,36,0,2.47,PK,1695489508
388,kanke,23.4333,85.3167,24.01,88,75,1.03,IN,1695489508
389,matoury,4.8483,-52.3317,33.98,55,20,4.63,GF,1695489508
390,mount gambier,-37.8333,140.7667,7.47,81,0,2.65,AU,1695489099
391,micheweni,-4.9667,39.8333,25.33,82,32,5.03,TZ,1695489508
392,bengkulu,-3.8004,102.2655,21.42,94,21,1.35,ID,1695488983
393,luanda,-8.8368,13.2343,23.0,83,20,4.63,AO,1695489081
394,oodweyne,9.4092,45.064,23.24,73,81,4.22,SO,1695489509
395,kutum,14.2,24.6667,32.04,20,70,3.31,SD,1695489509
396,idaho falls,43.4666,-112.0341,12.7,62,0,2.57,US,1695489509
397,zhoukou,33.6333,114.6333,15.86,95,100,3.93,CN,1695489510
398,usogorsk,63.4106,48.6872,15.92,75,89,4.39,RU,1695488968
399,angaur state,6.906,134.13,28.79,76,66,8.28,PW,1695488943
400,port-gentil,-0.7193,8.7815,26.98,78,40,6.17,GA,1695489510
401,cannonvale,-20.2833,148.7,19.66,66,41,8.29,AU,1695489511
402,kununurra,-15.7667,128.7333,19.99,73,99,0.51,AU,1695489005
403,cochirleanca,45.2167,27.0333,24.63,59,6,5.65,RO,1695489511
404,varzea da palma,-17.5981,-44.7308,37.48,16,45,0.84,BR,1695489512
405,lerwick,60.1545,-1.1494,10.0,59,100,4.78,GB,1695488965
406,prince rupert,54.3161,-130.3201,9.83,91,100,4.63,CA,1695489228
407,papao,-17.75,-149.55,21.82,98,100,11.91,PF,1695489075
408,taoudenni,22.6783,-3.9836,44.16,6,1,1.39,ML,1695489513
409,raja,8.4596,25.678,26.8,71,23,0.75,SS,1695489513
410,kihangara,-2.5833,33.35,26.33,55,90,3.14,TZ,1695489513
411,brookings,44.3114,-96.7984,18.99,97,100,4.63,US,1695489513
412,latakia,35.5148,35.7768,27.1,68,28,0.68,SY,1695489514
413,amalapuram,16.5833,82.0167,26.44,94,78,2.03,IN,1695489514
414,dolinsk,47.35,142.8,9.31,78,0,3.35,RU,1695489127
415,caleta de carquin,-11.0925,-77.6267,21.19,73,29,4.52,PE,1695489114
416,tyukhtet,56.5389,89.3011,4.24,84,82,4.03,RU,1695489515
417,gaoual,11.75,-13.2,28.64,84,99,1.43,GN,1695489515
418,celestun,20.8667,-90.4,30.7,63,1,3.63,MX,1695489515
419,burao,9.5221,45.5336,24.04,67,93,7.66,SO,1695489020
420,dryden,49.7833,-92.7503,16.16,88,100,5.14,CA,1695488972
421,mpika,-11.8343,31.4529,22.14,33,3,1.81,ZM,1695489516
422,upington,-28.4478,21.2561,21.21,60,75,1.03,ZA,1695489516
423,brak,27.5496,14.2714,32.25,12,1,2.08,LY,1695489517
424,russkaya polyana,49.417,31.9201,21.15,44,31,3.05,UA,1695489517
425,okha,53.5739,142.9478,5.01,77,10,2.82,RU,1695489091
426,buarcos,40.166,-8.8768,21.19,68,11,2.68,PT,1695489517
427,thames,-37.1333,175.5333,13.43,97,100,2.71,NZ,1695489518
428,ntungamo,-0.8833,29.65,20.15,87,66,0.98,UG,1695489518
429,blagoveshchenka,52.8333,79.8667,7.79,63,88,4.53,RU,1695489518
430,bikin,46.8161,134.26,8.77,80,61,1.73,RU,1695489519
431,arica,-18.475,-70.3042,25.75,64,0,6.69,CL,1695489519
432,salalah,17.0151,54.0924,27.05,94,75,3.09,OM,1695489519
433,mayqayyng,51.4625,75.7986,8.34,59,63,3.31,KZ,1695489519
434,jeremie,18.65,-74.1167,30.1,72,25,2.51,HT,1695489520
435,falavarjan,32.5553,51.5097,21.56,16,0,4.43,IR,1695489520
436,tofol,5.3248,163.0078,27.3,81,100,6.51,FM,1695488966
437,santyoku,37.4406,129.1708,18.78,71,79,3.99,KR,1695489521
438,golyshmanovo,56.3979,68.3728,10.03,45,100,2.72,RU,1695489521
439,leiyang,26.4024,112.8591,23.54,88,87,1.61,CN,1695489521
440,kulunda,52.566,78.9385,7.63,60,93,4.59,RU,1695489522
441,zapolyarnyy,69.4154,30.8136,7.6,94,100,3.44,RU,1695489522
442,sandnessjoen,66.0217,12.6316,9.29,87,77,4.16,NO,1695489522
443,carutapera,-1.195,-46.02,32.08,55,3,5.65,BR,1695489523
444,pudasjarvi,65.3833,26.9167,13.71,92,100,4.36,FI,1695489523
445,kovalam,8.3667,76.9967,26.05,89,75,2.57,IN,1695489523
446,feodosiya,45.0333,35.3833,20.88,72,8,1.83,UA,1695489523
447,lyantor,61.6195,72.1555,6.1,67,100,2.7,RU,1695489524
448,lisakovsk,52.5369,62.4936,12.79,48,20,1.75,KZ,1695489524
449,port macquarie,-31.4333,152.9167,12.72,66,94,0.99,AU,1695489077
450,pitimbu,-7.4706,-34.8086,29.33,70,17,4.36,BR,1695489524
451,moranbah,-22.0016,148.0466,13.91,75,0,4.55,AU,1695489524
452,chulakkurgan,43.765,69.1814,17.67,37,25,3.2,KZ,1695489525
453,zhumysker,49.3333,49.4,19.88,31,0,3.22,KZ,1695489525
454,yangshuo,24.7808,110.4897,23.87,95,3,0.38,CN,1695489525
455,sao joao da barra,-21.6403,-41.0511,29.05,70,7,6.2,BR,1695488962
456,cabedelo,-6.9811,-34.8339,29.37,69,4,4.67,BR,1695489526
457,anahuac,27.2333,-100.15,34.43,42,5,6.49,MX,1695489526
458,portland,45.5234,-122.6762,17.99,71,100,3.6,US,1695489305
459,boyolangu,-8.1181,111.8935,22.13,95,82,0.85,ID,1695489526
460,baruun-urt,46.6806,113.2792,11.38,83,35,5.38,MN,1695489527
461,inhambane,-23.865,35.3833,23.99,83,0,3.09,MZ,1695489527
462,as sulayyil,20.4607,45.5779,33.42,8,63,4.89,SA,1695489028
463,sekong,-6.3996,106.0252,21.96,86,85,0.5,ID,1695489528
464,napier,-39.4833,176.9167,11.27,94,100,1.34,NZ,1695489058
465,lazaro cardenas,17.9583,-102.2,31.89,66,19,1.05,MX,1695489528
466,bundu,23.1833,85.5833,26.12,95,100,1.98,IN,1695489529
467,barcelos,41.5388,-8.6151,24.4,59,0,2.84,PT,1695489529
468,saudarkrokur,65.7461,-19.6394,4.89,77,97,0.94,IS,1695488805
469,mineiros,-17.5694,-52.5511,37.99,19,24,1.71,BR,1695489530
470,kidal,18.4411,1.4078,40.46,8,0,3.23,ML,1695489530
471,guaranda,-1.6,-79.0,20.23,59,15,3.68,EC,1695489530
472,nadi,-17.8,177.4167,24.0,88,75,3.09,FJ,1695489091
473,pergamino,-33.89,-60.5736,15.1,64,68,6.24,AR,1695489428
474,zaragoza,41.6561,-0.8773,23.34,36,0,4.12,ES,1695489349
475,fort mcmurray,56.7268,-111.381,20.73,44,0,5.32,CA,1695488819
476,rikaze,29.25,88.8833,11.57,57,100,1.83,CN,1695489531
477,xique xique,-10.8217,-42.7311,32.46,35,0,2.14,BR,1695489532
478,vernon,50.2581,-119.2691,17.94,79,99,0.89,CA,1695488998
479,rey bouba,8.6724,14.1786,24.56,88,100,1.22,CM,1695489532
480,frontera,26.9333,-101.45,33.27,38,0,2.06,MX,1695489533
481,maragogi,-9.0122,-35.2225,27.26,68,28,4.33,BR,1695489533
482,kone,-21.0595,164.8658,19.08,87,70,2.02,NC,1695489091
483,chernyshevskiy,63.0128,112.4714,6.57,92,35,1.46,RU,1695489109
484,hoemul-li,41.4339,129.67,13.88,71,1,2.1,KP,1695489534
485,la passe,45.5549,-0.8967,19.45,61,10,2.88,FR,1695489534
486,kanniyakumari,8.0833,77.5667,26.81,85,6,7.01,IN,1695489534
487,ballycastle,55.2044,-6.243,12.52,73,100,6.57,GB,1695489534
488,saint-philippe,-21.3585,55.7679,23.77,79,37,6.25,RE,1695489083
489,chakia,26.4167,85.05,24.66,88,88,5.67,IN,1695489535
490,al ain city,24.1917,55.7606,36.79,16,0,2.57,AE,1695489535
491,tonj,7.2737,28.6822,27.38,64,26,1.49,SS,1695489535
492,road town,18.4167,-64.6167,32.02,66,40,5.14,VG,1695489536
493,cadale,2.7603,46.3222,26.15,82,100,6.73,SO,1695489536
494,qarazhal,48.0078,70.7903,12.15,55,90,3.85,KZ,1695489536
495,talara,-4.5772,-81.2719,27.42,57,0,8.43,PE,1695489537
496,crane,31.3974,-102.3501,32.89,33,9,2.8,US,1695489036
497,sisimiut,66.9395,-53.6735,2.5,49,2,0.26,GL,1695488957
498,daru,-9.0763,143.2092,24.51,88,87,7.85,PG,1695489537
499,turpan,42.9333,89.1667,23.33,25,100,1.08,CN,1695489027
500,pontes e lacerda,-15.2261,-59.3353,42.69,12,4,2.32,BR,1695489538
501,alesund,62.4723,6.1549,13.28,89,75,10.29,NO,1695489310
502,harnai,30.1005,67.9374,28.32,30,0,1.01,PK,1695489538
503,rongelap,11.1635,166.8941,28.02,81,77,6.73,MH,1695489041
504,saldanha,-33.0117,17.9442,13.44,73,53,15.21,ZA,1695489103
505,rice lake,45.5061,-91.7382,18.18,100,100,4.12,US,1695489539
506,kimberley,-28.7323,24.7623,15.83,82,75,3.09,ZA,1695489539
507,aparri,18.3333,121.6167,25.36,92,68,1.23,PH,1695489540
508,xingcheng,40.6167,120.7167,15.77,50,42,1.36,CN,1695489540
509,yukhnov,54.7444,35.2297,16.73,45,91,3.5,RU,1695489540
510,san patricio,28.017,-97.5169,35.49,49,25,4.84,US,1695489057
511,plettenberg bay,-34.0527,23.3716,13.92,91,100,6.29,ZA,1695489541
512,saynshand,44.8824,110.1163,17.29,41,98,4.69,MN,1695489541
513,kayenta,36.7278,-110.2546,16.22,53,100,5.32,US,1695489541
514,saint-paul,-21.0096,55.2707,23.06,90,31,2.23,RE,1695489542
515,cheremushki,52.8356,91.3944,6.62,95,100,2.13,RU,1695489542
516,santa elena de uairen,4.6167,-61.1333,26.42,64,50,3.17,VE,1695489542
517,port-vila,-17.7338,168.3219,24.2,77,24,2.14,VU,1695489542
518,chichiriviche,10.9333,-68.2772,31.04,64,41,4.71,VE,1695489543
519,sebdou,34.637,-1.3314,19.61,39,32,2.87,DZ,1695489543
520,weno,7.4515,151.8468,26.97,94,100,3.6,FM,1695489004
521,teluknaga,-6.0989,106.6381,29.42,88,20,0.51,ID,1695489543
522,matsubase,32.65,130.6667,22.83,75,97,2.56,JP,1695489544
523,castillos,-34.1667,-53.8333,13.37,97,100,4.25,UY,1695489104
524,camiri,-20.05,-63.5167,37.88,32,23,0.0,BO,1695489544
525,shingu,33.7333,135.9833,20.66,63,100,2.08,JP,1695489544
526,carolina beach,34.0352,-77.8936,19.48,85,100,2.68,US,1695489545
527,namibe,-15.1961,12.1522,18.83,89,100,5.92,AO,1695489004
528,lospalos,-8.5186,127.0025,20.57,93,64,1.27,TL,1695489545
529,batangafo,7.3008,18.2833,24.84,84,82,0.85,CF,1695489546
530,broome,42.2506,-75.833,13.94,82,75,3.6,US,1695489098
531,tabou,4.423,-7.3528,24.9,90,91,3.31,CI,1695489019
532,horta,38.5333,-28.6333,23.9,78,40,6.17,PT,1695489546
533,nadym,65.5333,72.5167,2.13,86,88,1.81,RU,1695488957
534,yerofey pavlovich,53.9667,121.9667,6.55,73,13,1.24,RU,1695489547
535,puerto baquerizo moreno,-0.9,-89.6,25.55,78,75,4.12,EC,1695489547
536,chota,-6.55,-78.65,21.01,51,39,4.5,PE,1695489547
537,cromwell,41.5951,-72.6454,16.69,85,100,5.66,US,1695489307
538,pavlovka,52.6897,47.1405,16.73,46,0,0.69,RU,1695489548
539,sao gabriel da cachoeira,-0.1303,-67.0892,35.42,41,53,1.6,BR,1695489091
540,bikenibeu village,1.3673,173.1241,25.98,89,20,0.51,KI,1695489112
541,quesada,10.3238,-84.4271,31.73,56,48,2.79,CR,1695489549
542,huitel,20.1639,-99.2733,24.33,30,6,2.37,MX,1695489549
543,el calafate,-50.3408,-72.2768,5.18,63,7,4.84,AR,1695488993
544,ebon,4.582,168.6964,28.85,73,100,5.09,MH,1695489550
545,mumbwa,-14.9783,27.0619,27.66,19,13,3.35,ZM,1695489550
546,astara,38.5,48.6667,17.99,56,8,1.36,AZ,1695489550
547,general villegas,-35.0328,-63.0125,18.32,52,66,3.52,AR,1695489551
548,merizo village,13.2658,144.6691,28.32,96,95,3.02,GU,1695489100
549,charters towers,-20.1,146.2667,14.71,82,0,3.87,AU,1695489551
550,antofagasta,-23.65,-70.4,19.56,68,45,4.32,CL,1695489058
551,goz beida,13.95,20.55,32.67,34,60,2.52,TD,1695489552
552,shaping,22.7545,112.9565,29.97,83,68,1.4,CN,1695489552
553,sitka,57.0531,-135.33,8.94,81,40,2.57,US,1695489552
554,qingquan,30.4511,115.2559,19.47,91,100,1.02,CN,1695489552
555,posto fiscal rolim de moura,-13.0833,-62.2667,43.0,15,1,1.55,BR,1695489553
556,drayton valley,53.2168,-114.9854,15.38,71,76,6.13,CA,1695489362
557,gurupi,-11.7292,-49.0686,39.86,14,1,2.83,BR,1695489553
558,les avirons,-21.2418,55.3394,21.05,64,0,3.09,RE,1695489553
559,sarkand,45.41,79.9186,10.99,87,100,1.4,KZ,1695489554
560,corinto,37.9407,22.9573,25.5,50,46,1.55,GR,1695489516
561,karratha,-20.7377,116.8463,27.78,29,20,6.32,AU,1695489035
562,monroe,43.1501,-77.6831,21.81,52,100,4.63,US,1695489554
563,jianguang,28.1938,115.7836,21.53,89,100,2.65,CN,1695489555
564,newport,51.5877,-2.9984,17.1,70,83,5.31,GB,1695489555
565,natal,-5.795,-35.2094,29.36,61,20,6.17,BR,1695488995
566,marang,5.2056,103.2059,23.95,89,100,1.19,MY,1695489555
567,naberera,-4.2,36.9333,21.32,50,32,6.64,TZ,1695489555
568,plouzane,48.3833,-4.6167,16.18,77,0,6.69,FR,1695489556
